{"type":"FeatureCollection","features":[{"type":"Feature","geometry":{"type":"Point","coordinates":[-3.168497,55.95533]},"properties":{"Name":"Abbeyhill","Depot":"No","marker-color":"#FF0000","marker-symbol":"cross","marker-size":"small"}},{"type":"Feature","geometry":{"type":"Point","coordinates":[-3.286975,55.907547]},"properties":{"Name":"Baberton and Juniper Green","Depot":"Yes","Docks":20.0,"marker-color":"#008000","marker-symbol":"scooter"}},{"type":"Feature","geometry":{"type":"Point","coordinates":[-3.341261,55.882267]},"properties":{"Name":"Balerno and Bonnington Village","Depot":"Yes","Docks":20.0,"marker-color":"#008000","marker-symbol":"scooter"}},{"type":"Feature","geometry":{"type":"Point","coordinates":[-3.24995,55.942714]},"properties":{"Name":"Balgreen and Roseburn","Depot":"No","marker-color":"#FF0000","marker-symbol":"cross","marker-size":"small"}},{"type":"Feature","geometry":{"type":"Point","coordinates":[-3.307606,55.962655]},"properties":{"Name":"Barnton, Cammo and Cramond South","Depot":"No","marker-color":"#FF0000","marker-symbol":"cross","marker-size":"small"}},{"type":"Feature","geometry":{"type":"Point","coordinates":[-3.112417,55.942015]},"properties":{"Name":"Bingham, Magdalene and The Christians","Depot":"No","marker-color":"#FF0000","marker-symbol":"cross","marker-size":"small"}},{"type":"Feature","geometry":{"type":"Point","coordinates":[-3.175828,55.927512]},"properties":{"Name":"Blackford, West Mains and Mayfield Road","Depot":"Yes","Docks":20.0,"marker-color":"#008000","marker-symbol":"scooter"}},{"type":"Feature","geometry":{"type":"Point","coordinates":[-3.26046,55.959622]},"properties":{"Name":"Blackhall","Depot":"Yes","Docks":20.0,"marker-color":"#008000","marker-symbol":"scooter"}},{"type":"Feature","geometry":{"type":"Point","coordinates":[-3.26261,55.902891]},"properties":{"Name":"Bonaly and The Pentlands","Depot":"No","marker-color":"#FF0000","marker-symbol":"cross","marker-size":"small"}},{"type":"Feature","geometry":{"type":"Point","coordinates":[-3.187092,55.971738]},"properties":{"Name":"Bonnington","Depot":"No","marker-color":"#FF0000","marker-symbol":"cross","marker-size":"small"}},{"type":"Feature","geometry":{"type":"Point","coordinates":[-3.225177,55.973664]},"properties":{"Name":"Boswall and Pilton","Depot":"Yes","Docks":20.0,"marker-color":"#008000","marker-symbol":"scooter"}},{"type":"Feature","geometry":{"type":"Point","coordinates":[-3.278706,55.927595]},"properties":{"Name":"Broomhouse and Bankhead","Depot":"Yes","Docks":20.0,"marker-color":"#008000","marker-symbol":"scooter"}},{"type":"Feature","geometry":{"type":"Point","coordinates":[-3.193029,55.9646]},"properties":{"Name":"Broughton North and Powderhall","Depot":"No","marker-color":"#FF0000","marker-symbol":"cross","marker-size":"small"}},{"type":"Feature","geometry":{"type":"Point","coordinates":[-3.185769,55.963679]},"properties":{"Name":"Broughton South","Depot":"No","marker-color":"#FF0000","marker-symbol":"cross","marker-size":"small"}},{"type":"Feature","geometry":{"type":"Point","coordinates":[-3.210003,55.93805]},"properties":{"Name":"Bruntsfield","Depot":"No","marker-color":"#FF0000","marker-symbol":"cross","marker-size":"small"}},{"type":"Feature","geometry":{"type":"Point","coordinates":[-3.180388,55.947075]},"properties":{"Name":"Canongate, Southside and Dumbiedykes","Depot":"Yes","Docks":20.0,"marker-color":"#008000","marker-symbol":"scooter"}},{"type":"Feature","geometry":{"type":"Point","coordinates":[-3.198358,55.960285]},"properties":{"Name":"Canonmills and New Town North","Depot":"No","marker-color":"#FF0000","marker-symbol":"cross","marker-size":"small"}},{"type":"Feature","geometry":{"type":"Point","coordinates":[-3.272043,55.936768]},"properties":{"Name":"Carrick Knowe","Depot":"No","marker-color":"#FF0000","marker-symbol":"cross","marker-size":"small"}},{"type":"Feature","geometry":{"type":"Point","coordinates":[-3.289627,55.956085]},"properties":{"Name":"Clermiston and Drumbrae","Depot":"No","marker-color":"#FF0000","marker-symbol":"cross","marker-size":"small"}},{"type":"Feature","geometry":{"type":"Point","coordinates":[-3.277658,55.912507]},"properties":{"Name":"Clovenstone and Wester Hailes","Depot":"No","marker-color":"#FF0000","marker-symbol":"cross","marker-size":"small"}},{"type":"Feature","geometry":{"type":"Point","coordinates":[-3.249268,55.909675]},"properties":{"Name":"Colinton and Kingsknowe","Depot":"No","marker-color":"#FF0000","marker-symbol":"cross","marker-size":"small"}},{"type":"Feature","geometry":{"type":"Point","coordinates":[-3.230448,55.909744]},"properties":{"Name":"Colinton Mains and Firrhill","Depot":"No","marker-color":"#FF0000","marker-symbol":"cross","marker-size":"small"}},{"type":"Feature","geometry":{"type":"Point","coordinates":[-3.21958,55.957314]},"properties":{"Name":"Comely Bank","Depot":"No","marker-color":"#FF0000","marker-symbol":"cross","marker-size":"small"}},{"type":"Feature","geometry":{"type":"Point","coordinates":[-3.217597,55.903737]},"properties":{"Name":"Comiston and Swanston","Depot":"No","marker-color":"#FF0000","marker-symbol":"cross","marker-size":"small"}},{"type":"Feature","geometry":{"type":"Point","coordinates":[-3.281392,55.942558]},"properties":{"Name":"Corstorphine","Depot":"Yes","Docks":20.0,"marker-color":"#008000","marker-symbol":"scooter"}},{"type":"Feature","geometry":{"type":"Point","coordinates":[-3.286021,55.949807]},"properties":{"Name":"Corstorphine North","Depot":"No","marker-color":"#FF0000","marker-symbol":"cross","marker-size":"small"}},{"type":"Feature","geometry":{"type":"Point","coordinates":[-3.2837,55.93459]},"properties":{"Name":"Corstorphine South","Depot":"No","marker-color":"#FF0000","marker-symbol":"cross","marker-size":"small"}},{"type":"Feature","geometry":{"type":"Point","coordinates":[-3.132935,55.958287]},"properties":{"Name":"Craigentinny","Depot":"No","marker-color":"#FF0000","marker-symbol":"cross","marker-size":"small"}},{"type":"Feature","geometry":{"type":"Point","coordinates":[-3.232205,55.960691]},"properties":{"Name":"Craigleith, Orchard Brae and Crewe Toll","Depot":"Yes","Docks":20.0,"marker-color":"#008000","marker-symbol":"scooter"}},{"type":"Feature","geometry":{"type":"Point","coordinates":[-3.239979,55.922392]},"properties":{"Name":"Craiglockhart","Depot":"Yes","Docks":20.0,"marker-color":"#008000","marker-symbol":"scooter"}},{"type":"Feature","geometry":{"type":"Point","coordinates":[-3.141078,55.93245]},"properties":{"Name":"Craigmillar","Depot":"Yes","Docks":20.0,"marker-color":"#008000","marker-symbol":"scooter"}},{"type":"Feature","geometry":{"type":"Point","coordinates":[-3.302446,55.972395]},"properties":{"Name":"Cramond","Depot":"No","marker-color":"#FF0000","marker-symbol":"cross","marker-size":"small"}},{"type":"Feature","geometry":{"type":"Point","coordinates":[-3.304185,55.899654]},"properties":{"Name":"Currie East","Depot":"Yes","Docks":20.0,"marker-color":"#008000","marker-symbol":"scooter"}},{"type":"Feature","geometry":{"type":"Point","coordinates":[-3.319603,55.896143]},"properties":{"Name":"Currie West","Depot":"Yes","Docks":20.0,"marker-color":"#008000","marker-symbol":"scooter"}},{"type":"Feature","geometry":{"type":"Point","coordinates":[-3.401423,55.956885]},"properties":{"Name":"Dalmeny, Kirkliston and Newbridge","Depot":"Yes","Docks":20.0,"marker-color":"#008000","marker-symbol":"scooter"}},{"type":"Feature","geometry":{"type":"Point","coordinates":[-3.217777,55.942741]},"properties":{"Name":"Dalry and Fountainbridge","Depot":"Yes","Docks":20.0,"marker-color":"#008000","marker-symbol":"scooter"}},{"type":"Feature","geometry":{"type":"Point","coordinates":[-3.221071,55.948777]},"properties":{"Name":"Deans Village","Depot":"Yes","Docks":20.0,"marker-color":"#008000","marker-symbol":"scooter"}},{"type":"Feature","geometry":{"type":"Point","coordinates":[-3.248147,55.964429]},"properties":{"Name":"Drylaw","Depot":"No","marker-color":"#FF0000","marker-symbol":"cross","marker-size":"small"}},{"type":"Feature","geometry":{"type":"Point","coordinates":[-3.124282,55.945392]},"properties":{"Name":"Duddingston and Portobello South","Depot":"No","marker-color":"#FF0000","marker-symbol":"cross","marker-size":"small"}},{"type":"Feature","geometry":{"type":"Point","coordinates":[-3.304507,55.954297]},"properties":{"Name":"East Craigs North","Depot":"No","marker-color":"#FF0000","marker-symbol":"cross","marker-size":"small"}},{"type":"Feature","geometry":{"type":"Point","coordinates":[-3.303084,55.946765]},"properties":{"Name":"East Craigs South","Depot":"Yes","Docks":20.0,"marker-color":"#008000","marker-symbol":"scooter"}},{"type":"Feature","geometry":{"type":"Point","coordinates":[-3.168228,55.962007]},"properties":{"Name":"Easter Road and Hawkhill Avenue","Depot":"No","marker-color":"#FF0000","marker-symbol":"cross","marker-size":"small"}},{"type":"Feature","geometry":{"type":"Point","coordinates":[-3.200154,55.904001]},"properties":{"Name":"Fairmilehead","Depot":"No","marker-color":"#FF0000","marker-symbol":"cross","marker-size":"small"}},{"type":"Feature","geometry":{"type":"Point","coordinates":[-3.132721,55.911918]},"properties":{"Name":"Fernieside and Moredun South","Depot":"No","marker-color":"#FF0000","marker-symbol":"cross","marker-size":"small"}},{"type":"Feature","geometry":{"type":"Point","coordinates":[-3.140268,55.901339]},"properties":{"Name":"Gilmerton South and the Murrays","Depot":"Yes","Docks":20.0,"marker-color":"#008000","marker-symbol":"scooter"}},{"type":"Feature","geometry":{"type":"Point","coordinates":[-3.227354,55.940461]},"properties":{"Name":"Gorgie East","Depot":"No","marker-color":"#FF0000","marker-symbol":"cross","marker-size":"small"}},{"type":"Feature","geometry":{"type":"Point","coordinates":[-3.237758,55.936486]},"properties":{"Name":"Gorgie West","Depot":"No","marker-color":"#FF0000","marker-symbol":"cross","marker-size":"small"}},{"type":"Feature","geometry":{"type":"Point","coordinates":[-3.158611,55.902168]},"properties":{"Name":"Gracemount, Southhouse and Burdiehouse","Depot":"No","marker-color":"#FF0000","marker-symbol":"cross","marker-size":"small"}},{"type":"Feature","geometry":{"type":"Point","coordinates":[-3.233366,55.977661]},"properties":{"Name":"Granton and Royston Mains","Depot":"No","marker-color":"#FF0000","marker-symbol":"cross","marker-size":"small"}},{"type":"Feature","geometry":{"type":"Point","coordinates":[-3.227086,55.97824]},"properties":{"Name":"Granton South and Wardieburn","Depot":"No","marker-color":"#FF0000","marker-symbol":"cross","marker-size":"small"}},{"type":"Feature","geometry":{"type":"Point","coordinates":[-3.250913,55.975169]},"properties":{"Name":"Granton West and Salvesen","Depot":"Yes","Docks":20.0,"marker-color":"#008000","marker-symbol":"scooter"}},{"type":"Feature","geometry":{"type":"Point","coordinates":[-3.174506,55.972302]},"properties":{"Name":"Great Junction Street","Depot":"Yes","Docks":20.0,"marker-color":"#008000","marker-symbol":"scooter"}},{"type":"Feature","geometry":{"type":"Point","coordinates":[-3.220098,55.916883]},"properties":{"Name":"Greenbank and The Braids","Depot":"No","marker-color":"#FF0000","marker-symbol":"cross","marker-size":"small"}},{"type":"Feature","geometry":{"type":"Point","coordinates":[-3.176598,55.959016]},"properties":{"Name":"Hillside and Calton Hill","Depot":"Yes","Docks":20.0,"marker-color":"#008000","marker-symbol":"scooter"}},{"type":"Feature","geometry":{"type":"Point","coordinates":[-3.141836,55.905039]},"properties":{"Name":"Hyvots and Gilmerton","Depot":"No","marker-color":"#FF0000","marker-symbol":"cross","marker-size":"small"}},{"type":"Feature","geometry":{"type":"Point","coordinates":[-3.207896,55.96913]},"properties":{"Name":"Inverleith, Goldenacre and Warriston","Depot":"No","marker-color":"#FF0000","marker-symbol":"cross","marker-size":"small"}},{"type":"Feature","geometry":{"type":"Point","coordinates":[-3.103738,55.937042]},"properties":{"Name":"Jewel, Brunstane and Newcraighall","Depot":"Yes","Docks":20.0,"marker-color":"#008000","marker-symbol":"scooter"}},{"type":"Feature","geometry":{"type":"Point","coordinates":[-3.098042,55.947801]},"properties":{"Name":"Joppa","Depot":"Yes","Docks":20.0,"marker-color":"#008000","marker-symbol":"scooter"}},{"type":"Feature","geometry":{"type":"Point","coordinates":[-3.17597,55.962693]},"properties":{"Name":"Leith (Albert Street)","Depot":"No","marker-color":"#FF0000","marker-symbol":"cross","marker-size":"small"}},{"type":"Feature","geometry":{"type":"Point","coordinates":[-3.158999,55.967556]},"properties":{"Name":"Leith (Hermitage and Prospect Bank)","Depot":"No","marker-color":"#FF0000","marker-symbol":"cross","marker-size":"small"}},{"type":"Feature","geometry":{"type":"Point","coordinates":[-3.149332,55.911171]},"properties":{"Name":"Liberton East","Depot":"No","marker-color":"#FF0000","marker-symbol":"cross","marker-size":"small"}},{"type":"Feature","geometry":{"type":"Point","coordinates":[-3.165346,55.914776]},"properties":{"Name":"Liberton West and Braid Hills","Depot":"No","marker-color":"#FF0000","marker-symbol":"cross","marker-size":"small"}},{"type":"Feature","geometry":{"type":"Point","coordinates":[-3.262423,55.923998]},"properties":{"Name":"Longstone and Saughton","Depot":"No","marker-color":"#FF0000","marker-symbol":"cross","marker-size":"small"}},{"type":"Feature","geometry":{"type":"Point","coordinates":[-3.188828,55.938329]},"properties":{"Name":"Marchmont East and Sciennes","Depot":"No","marker-color":"#FF0000","marker-symbol":"cross","marker-size":"small"}},{"type":"Feature","geometry":{"type":"Point","coordinates":[-3.197834,55.937215]},"properties":{"Name":"Marchmont West","Depot":"No","marker-color":"#FF0000","marker-symbol":"cross","marker-size":"small"}},{"type":"Feature","geometry":{"type":"Point","coordinates":[-3.162429,55.957914]},"properties":{"Name":"Meadowbank and Abbeyhill North","Depot":"No","marker-color":"#FF0000","marker-symbol":"cross","marker-size":"small"}},{"type":"Feature","geometry":{"type":"Point","coordinates":[-3.18611,55.941475]},"properties":{"Name":"Meadows and Southside","Depot":"Yes","Docks":20.0,"marker-color":"#008000","marker-symbol":"scooter"}},{"type":"Feature","geometry":{"type":"Point","coordinates":[-3.2126,55.933069]},"properties":{"Name":"Merchiston and Greenhill","Depot":"Yes","Docks":20.0,"marker-color":"#008000","marker-symbol":"scooter"}},{"type":"Feature","geometry":{"type":"Point","coordinates":[-3.140188,55.914237]},"properties":{"Name":"Moredun and Craigour","Depot":"No","marker-color":"#FF0000","marker-symbol":"cross","marker-size":"small"}},{"type":"Feature","geometry":{"type":"Point","coordinates":[-3.205298,55.927117]},"properties":{"Name":"Morningside","Depot":"Yes","Docks":20.0,"marker-color":"#008000","marker-symbol":"scooter"}},{"type":"Feature","geometry":{"type":"Point","coordinates":[-3.217173,55.923297]},"properties":{"Name":"Morningside and Craighouse","Depot":"No","marker-color":"#FF0000","marker-symbol":"cross","marker-size":"small"}},{"type":"Feature","geometry":{"type":"Point","coordinates":[-3.170708,55.903578]},"properties":{"Name":"Mortonhall and Anwickhill","Depot":"No","marker-color":"#FF0000","marker-symbol":"cross","marker-size":"small"}},{"type":"Feature","geometry":{"type":"Point","coordinates":[-3.132264,55.952172]},"properties":{"Name":"Mountcastle","Depot":"No","marker-color":"#FF0000","marker-symbol":"cross","marker-size":"small"}},{"type":"Feature","geometry":{"type":"Point","coordinates":[-3.260897,55.969811]},"properties":{"Name":"Muirhouse","Depot":"No","marker-color":"#FF0000","marker-symbol":"cross","marker-size":"small"}},{"type":"Feature","geometry":{"type":"Point","coordinates":[-3.277574,55.918422]},"properties":{"Name":"Murrayburn and Wester Hailes North","Depot":"No","marker-color":"#FF0000","marker-symbol":"cross","marker-size":"small"}},{"type":"Feature","geometry":{"type":"Point","coordinates":[-3.242833,55.949893]},"properties":{"Name":"Murrayfield and Ravelston","Depot":"No","marker-color":"#FF0000","marker-symbol":"cross","marker-size":"small"}},{"type":"Feature","geometry":{"type":"Point","coordinates":[-3.18944,55.958974]},"properties":{"Name":"New Town East and Gayfield","Depot":"No","marker-color":"#FF0000","marker-symbol":"cross","marker-size":"small"}},{"type":"Feature","geometry":{"type":"Point","coordinates":[-3.203188,55.956431]},"properties":{"Name":"New Town West","Depot":"Yes","Docks":20.0,"marker-color":"#008000","marker-symbol":"scooter"}},{"type":"Feature","geometry":{"type":"Point","coordinates":[-3.174347,55.938314]},"properties":{"Name":"Newington and Dalkeith Road","Depot":"No","marker-color":"#FF0000","marker-symbol":"cross","marker-size":"small"}},{"type":"Feature","geometry":{"type":"Point","coordinates":[-3.122047,55.932971]},"properties":{"Name":"Niddrie","Depot":"No","marker-color":"#FF0000","marker-symbol":"cross","marker-size":"small"}},{"type":"Feature","geometry":{"type":"Point","coordinates":[-3.185392,55.977881]},"properties":{"Name":"North Leith and Newhaven","Depot":"No","marker-color":"#FF0000","marker-symbol":"cross","marker-size":"small"}},{"type":"Feature","geometry":{"type":"Point","coordinates":[-3.140798,55.952111]},"properties":{"Name":"Northfield and Piershill","Depot":"No","marker-color":"#FF0000","marker-symbol":"cross","marker-size":"small"}},{"type":"Feature","geometry":{"type":"Point","coordinates":[-3.189919,55.950148]},"properties":{"Name":"Old Town, Princes Street and Leith Street","Depot":"Yes","Docks":20.0,"marker-color":"#008000","marker-symbol":"scooter"}},{"type":"Feature","geometry":{"type":"Point","coordinates":[-3.224472,55.906679]},"properties":{"Name":"Oxgangs","Depot":"No","marker-color":"#FF0000","marker-symbol":"cross","marker-size":"small"}},{"type":"Feature","geometry":{"type":"Point","coordinates":[-3.279246,55.922786]},"properties":{"Name":"Parkhead and Sighthill","Depot":"No","marker-color":"#FF0000","marker-symbol":"cross","marker-size":"small"}},{"type":"Feature","geometry":{"type":"Point","coordinates":[-3.179175,55.96693]},"properties":{"Name":"Pilrig","Depot":"No","marker-color":"#FF0000","marker-symbol":"cross","marker-size":"small"}},{"type":"Feature","geometry":{"type":"Point","coordinates":[-3.222071,55.938171]},"properties":{"Name":"Polwarth","Depot":"No","marker-color":"#FF0000","marker-symbol":"cross","marker-size":"small"}},{"type":"Feature","geometry":{"type":"Point","coordinates":[-3.114992,55.954047]},"properties":{"Name":"Portobello","Depot":"Yes","Docks":20.0,"marker-color":"#008000","marker-symbol":"scooter"}},{"type":"Feature","geometry":{"type":"Point","coordinates":[-3.161879,55.932953]},"properties":{"Name":"Prestonfield","Depot":"No","marker-color":"#FF0000","marker-symbol":"cross","marker-size":"small"}},{"type":"Feature","geometry":{"type":"Point","coordinates":[-3.390951,55.98516]},"properties":{"Name":"Queensferry East","Depot":"Yes","Docks":20.0,"marker-color":"#008000","marker-symbol":"scooter"}},{"type":"Feature","geometry":{"type":"Point","coordinates":[-3.411853,55.98827]},"properties":{"Name":"Queensferry West","Depot":"Yes","Docks":20.0,"marker-color":"#008000","marker-symbol":"scooter"}},{"type":"Feature","geometry":{"type":"Point","coordinates":[-3.365956,55.93082]},"properties":{"Name":"Ratho, Ingliston and Gogar","Depot":"Yes","Docks":20.0,"marker-color":"#008000","marker-symbol":"scooter"}},{"type":"Feature","geometry":{"type":"Point","coordinates":[-3.145356,55.959677]},"properties":{"Name":"Restalrig (Loganlea) and Craigentinny West","Depot":"No","marker-color":"#FF0000","marker-symbol":"cross","marker-size":"small"}},{"type":"Feature","geometry":{"type":"Point","coordinates":[-3.154609,55.963045]},"properties":{"Name":"Restalrig and Lochend","Depot":"No","marker-color":"#FF0000","marker-symbol":"cross","marker-size":"small"}},{"type":"Feature","geometry":{"type":"Point","coordinates":[-3.230053,55.93384]},"properties":{"Name":"Shandon","Depot":"No","marker-color":"#FF0000","marker-symbol":"cross","marker-size":"small"}},{"type":"Feature","geometry":{"type":"Point","coordinates":[-3.270611,55.967098]},"properties":{"Name":"Silverknowes and Davidson's Mains","Depot":"No","marker-color":"#FF0000","marker-symbol":"cross","marker-size":"small"}},{"type":"Feature","geometry":{"type":"Point","coordinates":[-3.244355,55.930344]},"properties":{"Name":"Slateford and Chesser","Depot":"Yes","Docks":20.0,"marker-color":"#008000","marker-symbol":"scooter"}},{"type":"Feature","geometry":{"type":"Point","coordinates":[-3.300013,55.936958]},"properties":{"Name":"South Gyle","Depot":"Yes","Docks":20.0,"marker-color":"#008000","marker-symbol":"scooter"}},{"type":"Feature","geometry":{"type":"Point","coordinates":[-3.169698,55.967256]},"properties":{"Name":"South Leith","Depot":"No","marker-color":"#FF0000","marker-symbol":"cross","marker-size":"small"}},{"type":"Feature","geometry":{"type":"Point","coordinates":[-3.261546,55.932606]},"properties":{"Name":"Stenhouse and Saughton Mains","Depot":"Yes","Docks":20.0,"marker-color":"#008000","marker-symbol":"scooter"}},{"type":"Feature","geometry":{"type":"Point","coordinates":[-3.210453,55.958848]},"properties":{"Name":"Stockbridge","Depot":"Yes","Docks":20.0,"marker-color":"#008000","marker-symbol":"scooter"}},{"type":"Feature","geometry":{"type":"Point","coordinates":[-3.293019,55.91842]},"properties":{"Name":"The Calders","Depot":"No","marker-color":"#FF0000","marker-symbol":"cross","marker-size":"small"}},{"type":"Feature","geometry":{"type":"Point","coordinates":[-3.18447,55.9323]},"properties":{"Name":"The Grange","Depot":"No","marker-color":"#FF0000","marker-symbol":"cross","marker-size":"small"}},{"type":"Feature","geometry":{"type":"Point","coordinates":[-3.156508,55.920056]},"properties":{"Name":"The Inch","Depot":"No","marker-color":"#FF0000","marker-symbol":"cross","marker-size":"small"}},{"type":"Feature","geometry":{"type":"Point","coordinates":[-3.167792,55.975245]},"properties":{"Name":"The Shore and Constitution Street","Depot":"Yes","Docks":20.0,"marker-color":"#008000","marker-symbol":"scooter"}},{"type":"Feature","geometry":{"type":"Point","coordinates":[-3.204105,55.944536]},"properties":{"Name":"Tollcross","Depot":"Yes","Docks":20.0,"marker-color":"#008000","marker-symbol":"scooter"}},{"type":"Feature","geometry":{"type":"Point","coordinates":[-3.2093,55.975709]},"properties":{"Name":"Trinity","Depot":"No","marker-color":"#FF0000","marker-symbol":"cross","marker-size":"small"}},{"type":"Feature","geometry":{"type":"Point","coordinates":[-3.193911,55.976642]},"properties":{"Name":"Trinity East and The Dudleys","Depot":"No","marker-color":"#FF0000","marker-symbol":"cross","marker-size":"small"}},{"type":"Feature","geometry":{"type":"Point","coordinates":[-3.243772,55.970779]},"properties":{"Name":"West Pilton","Depot":"No","marker-color":"#FF0000","marker-symbol":"cross","marker-size":"small"}},{"type":"Feature","geometry":{"type":"Point","coordinates":[-3.177681,55.979605]},"properties":{"Name":"Western Harbour and Leith Docks","Depot":"Yes","Docks":20.0,"marker-color":"#008000","marker-symbol":"scooter"}},{"type":"Feature","geometry":{"type":"Point","coordinates":[-3.145871,55.950476]},"properties":{"Name":"Willowbrae and Duddingston Village","Depot":"Yes","Docks":20.0,"marker-color":"#008000","marker-symbol":"scooter"}}]}